$GNGGA,140441.26,3031.776091,N,11421.005132,E,1,12,2.5,28.4,M,-13.9,M,,*63
$GNGGA,140442.28,3031.776992,N,11421.005535,E,1,12,2.3,25.1,M,-13.9,M,,*69
$GNGGA,140443.28,3031.776651,N,11421.003950,E,1,12,2.3,33.0,M,-13.9,M,,*67
$GNGGA,140444.28,3031.774559,N,11421.000752,E,1,12,2.3,32.8,M,-13.9,M,,*6F
$GNGGA,140445.27,3031.772621,N,11420.997712,E,1,12,2.3,36.2,M,-13.9,M,,*67
$GNGGA,140446.28,3031.776079,N,11421.008051,E,1,12,2.3,41.0,M,-13.9,M,,*68
$GNGGA,140447.27,3031.774882,N,11421.006416,E,1,12,3.6,44.2,M,-13.9,M,,*62
$GNGGA,140448.28,3031.773725,N,11421.004750,E,1,12,3.7,41.0,M,-13.9,M,,*62
$GNGGA,140449.28,3031.773850,N,11421.005527,E,1,12,4.0,53.1,M,-13.9,M,,*6F
$GNGGA,140450.28,3031.772667,N,11421.005725,E,1,08,11.2,39.2,M,-13.9,M,,*5E
$GNGGA,140516.28,3031.761388,N,11421.017240,E,1,12,1.8,81.9,M,-13.9,M,,*66
$GNGGA,140517.29,3031.754307,N,11421.022920,E,1,12,1.5,23.6,M,-13.9,M,,*66
$GNGGA,140518.29,3031.766049,N,11421.008731,E,1,12,0.8,48.9,M,-13.9,M,,*69
$GNGGA,140519.29,3031.760556,N,11420.998843,E,1,12,0.8,2.2,M,-13.9,M,,*5B
$GNGGA,140520.29,3031.762931,N,11421.001523,E,1,12,0.7,-4.0,M,-13.9,M,,*7B
$GNGGA,140521.29,3031.762191,N,11420.993344,E,1,12,0.7,3.0,M,-13.9,M,,*56
$GNGGA,140522.29,3031.764251,N,11420.996755,E,1,12,0.8,-10.7,M,-13.9,M,,*4A
$GNGGA,140523.29,3031.767437,N,11421.003530,E,1,12,0.7,29.1,M,-13.9,M,,*65
$GNGGA,140524.29,3031.765373,N,11421.001693,E,1,12,0.8,13.9,M,-13.9,M,,*61
$GNGGA,140525.29,3031.761099,N,11421.017345,E,1,12,0.6,72.2,M,-13.9,M,,*68
$GNGGA,140526.28,3031.768044,N,11421.017961,E,1,12,0.6,37.1,M,-13.9,M,,*6D
$GNGGA,140527.00,3031.765832,N,11421.012349,E,1,12,0.6,46.7,M,-13.9,M,,*67
$GNGGA,140528.00,3031.768635,N,11421.013514,E,1,12,0.7,50.5,M,-13.9,M,,*67
$GNGGA,140529.00,3031.769600,N,11421.014275,E,1,12,0.6,54.4,M,-13.9,M,,*62
$GNGGA,140530.00,3031.770107,N,11421.014437,E,1,12,0.6,55.3,M,-13.9,M,,*64
$GNGGA,140531.00,3031.770369,N,11421.014639,E,1,12,0.6,56.3,M,-13.9,M,,*60
$GNGGA,140532.00,3031.770823,N,11421.014500,E,1,12,0.6,57.5,M,-13.9,M,,*68
$GNGGA,140533.00,3031.770976,N,11421.014395,E,1,12,0.5,58.2,M,-13.9,M,,*69
$GNGGA,140534.00,3031.770949,N,11421.014377,E,1,12,0.6,58.4,M,-13.9,M,,*6B
$GNGGA,140535.00,3031.770928,N,11421.014341,E,1,12,0.6,58.5,M,-13.9,M,,*69
$GNGGA,140536.00,3031.770899,N,11421.014297,E,1,12,0.5,59.1,M,-13.9,M,,*6D
$GNGGA,140537.00,3031.770999,N,11421.014292,E,1,12,0.6,59.5,M,-13.9,M,,*6F
$GNGGA,140538.00,3031.770800,N,11421.014411,E,1,12,0.5,59.9,M,-13.9,M,,*63
$GNGGA,140539.00,3031.770671,N,11421.014495,E,1,12,0.5,59.9,M,-13.9,M,,*66
$GNGGA,140540.00,3031.770446,N,11421.014536,E,1,12,0.5,59.5,M,-13.9,M,,*6A
$GNGGA,140541.00,3031.770271,N,11421.014578,E,1,12,0.5,59.1,M,-13.9,M,,*67
$GNGGA,140542.00,3031.770079,N,11421.014707,E,1,12,0.5,59.0,M,-13.9,M,,*65
$GNGGA,140543.00,3031.769902,N,11421.014808,E,1,12,0.5,58.7,M,-13.9,M,,*6F
$GNGGA,140544.00,3031.769910,N,11421.014794,E,1,12,0.5,58.6,M,-13.9,M,,*60
$GNGGA,140545.00,3031.769854,N,11421.014832,E,1,12,0.5,58.6,M,-13.9,M,,*63
$GNGGA,140546.00,3031.769786,N,11421.014928,E,1,12,0.5,59.3,M,-13.9,M,,*6E
$GNGGA,140547.00,3031.769699,N,11421.014752,E,1,12,0.5,59.3,M,-13.9,M,,*63
$GNGGA,140548.00,3031.769467,N,11421.015085,E,1,12,0.5,59.7,M,-13.9,M,,*67
$GNGGA,140549.00,3031.769397,N,11421.015253,E,1,12,0.5,59.9,M,-13.9,M,,*69
$GNGGA,140550.00,3031.769408,N,11421.015431,E,1,12,0.5,60.0,M,-13.9,M,,*61
$GNGGA,140551.00,3031.769233,N,11421.015639,E,1,12,0.5,60.4,M,-13.9,M,,*60
$GNGGA,140552.00,3031.768915,N,11421.015787,E,1,12,0.5,60.3,M,-13.9,M,,*6E
$GNGGA,140553.00,3031.768811,N,11421.015934,E,1,12,0.6,60.2,M,-13.9,M,,*6E
$GNGGA,140554.00,3031.768763,N,11421.016102,E,1,12,0.6,60.2,M,-13.9,M,,*6D
$GNGGA,140555.00,3031.768864,N,11421.016161,E,1,12,0.6,60.2,M,-13.9,M,,*61
$GNGGA,140556.00,3031.769008,N,11421.016284,E,1,12,0.6,60.2,M,-13.9,M,,*69
$GNGGA,140557.00,3031.769194,N,11421.016293,E,1,12,0.6,60.6,M,-13.9,M,,*6E
$GNGGA,140558.00,3031.769218,N,11421.016390,E,1,12,0.6,61.0,M,-13.9,M,,*63
$GNGGA,140559.00,3031.769280,N,11421.016455,E,1,12,0.6,61.0,M,-13.9,M,,*6D
$GNGGA,140600.00,3031.769223,N,11421.016730,E,1,12,0.6,61.2,M,-13.9,M,,*69
$GNGGA,140601.00,3031.769483,N,11421.016670,E,1,12,0.7,61.8,M,-13.9,M,,*6A
$GNGGA,140602.00,3031.769521,N,11421.016736,E,1,12,0.8,62.3,M,-13.9,M,,*64
$GNGGA,140603.00,3031.769792,N,11421.016985,E,1,12,0.7,62.3,M,-13.9,M,,*66
$GNGGA,140604.00,3031.769806,N,11421.017212,E,1,12,0.6,62.5,M,-13.9,M,,*60
$GNGGA,140605.00,3031.770084,N,11421.017176,E,1,12,0.6,62.0,M,-13.9,M,,*6F
$GNGGA,140606.00,3031.770079,N,11421.017269,E,1,12,0.6,62.1,M,-13.9,M,,*62
$GNGGA,140607.00,3031.769946,N,11421.017248,E,1,12,0.6,62.2,M,-13.9,M,,*6E
$GNGGA,140608.00,3031.769787,N,11421.017230,E,1,12,0.6,62.2,M,-13.9,M,,*6D
$GNGGA,140609.00,3031.769743,N,11421.017232,E,1,12,0.6,62.2,M,-13.9,M,,*66
$GNGGA,140610.00,3031.769736,N,11421.017194,E,1,12,0.6,62.1,M,-13.9,M,,*60
$GNGGA,140611.00,3031.769813,N,11421.017039,E,1,12,0.6,62.1,M,-13.9,M,,*6F
$GNGGA,140612.00,3031.769698,N,11421.017083,E,1,12,0.6,62.7,M,-13.9,M,,*66
$GNGGA,140613.00,3031.769557,N,11421.017036,E,1,12,0.6,63.1,M,-13.9,M,,*6E
$GNGGA,140614.00,3031.769438,N,11421.016942,E,1,12,0.6,63.6,M,-13.9,M,,*6D
$GNGGA,140615.00,3031.769189,N,11421.016844,E,1,12,0.6,64.0,M,-13.9,M,,*65
$GNGGA,140616.00,3031.769041,N,11421.016768,E,1,12,0.6,64.2,M,-13.9,M,,*60
$GNGGA,140617.00,3031.768891,N,11421.016637,E,1,12,0.6,64.1,M,-13.9,M,,*6D
$GNGGA,140618.00,3031.768842,N,11421.016620,E,1,12,0.6,63.9,M,-13.9,M,,*65
$GNGGA,140619.00,3031.768814,N,11421.016609,E,1,12,0.6,63.8,M,-13.9,M,,*6D
$GNGGA,140620.00,3031.768779,N,11421.016625,E,1,12,0.7,63.7,M,-13.9,M,,*63
$GNGGA,140621.00,3031.768738,N,11421.016618,E,1,12,0.7,63.6,M,-13.9,M,,*68
$GNGGA,140622.00,3031.768647,N,11421.016823,E,1,12,0.7,63.7,M,-13.9,M,,*65
$GNGGA,140623.00,3031.768613,N,11421.016912,E,1,12,0.6,63.4,M,-13.9,M,,*64
$GNGGA,140624.00,3031.768471,N,11421.016572,E,1,12,0.7,63.9,M,-13.9,M,,*63
$GNGGA,140625.00,3031.768585,N,11421.016190,E,1,12,0.6,63.9,M,-13.9,M,,*61
$GNGGA,140626.00,3031.768726,N,11421.015819,E,1,12,0.6,63.8,M,-13.9,M,,*63
$GNGGA,140627.00,3031.769083,N,11421.015365,E,1,12,0.6,63.1,M,-13.9,M,,*62
$GNGGA,140628.00,3031.769221,N,11421.015127,E,1,12,0.6,63.2,M,-13.9,M,,*60
$GNGGA,140629.00,3031.769335,N,11421.014903,E,1,12,0.6,63.3,M,-13.9,M,,*6B
$GNGGA,140630.00,3031.769425,N,11421.014735,E,1,12,0.6,63.3,M,-13.9,M,,*6E
$GNGGA,140631.00,3031.769420,N,11421.014643,E,1,12,0.6,63.3,M,-13.9,M,,*6A
$GNGGA,140632.00,3031.769437,N,11421.014566,E,1,12,0.6,63.3,M,-13.9,M,,*6B
$GNGGA,140633.00,3031.769447,N,11421.014476,E,1,12,0.6,63.3,M,-13.9,M,,*6D
$GNGGA,140634.00,3031.769488,N,11421.014438,E,1,12,0.6,63.1,M,-13.9,M,,*61
